time,cycle,altitude,north_pos,east_pos,forward_vel,side_vel,vertical_vel,total_vel,roll_angle,pitch_angle,yaw_angle,roll_rate,pitch_rate,yaw_rate,aileron,elevator,rudder,throttle,aoa,sideslip,g_force,heading_deg,bank_deg,pitch_deg,aoa_deg,slip_deg
0.050000,10,1000.076222,2.751327,0.000001,55.095040,0.000219,0.275058,55.095727,0.000637,0.030287,0.000000,0.018439,0.007956,0.000003,0.400000,0.150000,0.000186,0.900000,-0.004992,0.000004,0.643521,0.000008,0.036523,1.735310,-0.286042,0.000228
0.100000,20,1000.138753,5.507839,0.000007,55.190506,0.001144,0.593091,55.193693,0.001613,0.030700,0.000001,0.019975,0.008360,0.000011,0.400000,0.150000,0.000458,0.900000,-0.010746,0.000021,0.467500,0.000054,0.092429,1.758954,-0.615691,0.001187
0.150000,30,1000.185668,8.269628,0.000025,55.286303,0.002816,0.952646,55.294510,0.002615,0.031118,0.000003,0.020041,0.008352,0.000024,0.400000,0.150000,0.000805,0.900000,-0.017229,0.000051,0.364901,0.000155,0.149828,1.782907,-0.987174,0.002918
0.200000,40,1000.214774,11.036789,0.000053,55.382283,0.005228,1.358962,55.398954,0.003616,0.031534,0.000006,0.019978,0.008323,0.000040,0.400000,0.150000,0.001227,0.900000,-0.024533,0.000094,0.293384,0.000321,0.207163,1.806793,-1.405633,0.005409
0.250000,50,1000.223579,13.809420,0.000084,55.478213,0.008382,1.818386,55.508006,0.004613,0.031950,0.000010,0.019902,0.008290,0.000059,0.400000,0.150000,0.001722,0.900000,-0.032765,0.000151,0.251039,0.000561,0.264296,1.830589,-1.877288,0.008656
0.300000,60,1000.209252,16.587620,0.000100,55.573742,0.012283,2.338182,55.622910,0.005606,0.032363,0.000015,0.019821,0.008257,0.000082,0.400000,0.150000,0.002292,0.900000,-0.042049,0.000221,0.254578,0.000884,0.321207,1.854290,-2.409213,0.012664
0.350000,70,1000.168572,19.371480,0.000077,55.668367,0.016946,2.926650,55.745248,0.006595,0.032775,0.000023,0.019736,0.008221,0.000108,0.400000,0.150000,0.002938,0.900000,-0.052525,0.000304,0.312576,0.001299,0.377884,1.877891,-3.009437,0.017441
0.400000,80,1000.097873,22.161081,-0.000024,55.761374,0.022389,3.593296,55.877035,0.007580,0.033185,0.000032,0.019646,0.008183,0.000136,0.400000,0.150000,0.003662,0.900000,-0.064352,0.000402,0.418530,0.001815,0.434314,1.901386,-3.687076,0.023005
0.450000,90,999.992977,24.956485,-0.000250,55.851770,0.028638,4.349031,56.020845,0.008560,0.033594,0.000043,0.019548,0.008142,0.000168,0.400000,0.150000,0.004466,0.900000,-0.077711,0.000513,0.563696,0.002439,0.490478,1.924768,-4.452488,0.029379
0.500000,100,999.849119,27.757716,-0.000669,55.938191,0.035727,5.206417,56.179972,0.009536,0.033999,0.000056,0.019442,0.008098,0.000203,0.400000,0.150000,0.005354,0.900000,-0.092807,0.000639,0.743320,0.003182,0.546355,1.948026,-5.317454,0.036594
0.550000,110,999.660857,30.564751,-0.001362,56.018778,0.043694,6.179973,56.358651,0.010505,0.034403,0.000071,0.019324,0.008048,0.000241,0.400000,0.150000,0.006329,0.900000,-0.109875,0.000780,0.956608,0.004051,0.601915,1.971147,-6.295395,0.044690
0.600000,120,999.421961,33.377488,-0.002433,56.091007,0.052585,7.286567,56.562336,0.011469,0.034804,0.000088,0.019191,0.007993,0.000283,0.400000,0.150000,0.007396,0.900000,-0.129183,0.000937,1.205606,0.005054,0.657121,1.994116,-7.401625,0.053714
0.650000,130,999.125283,36.195720,-0.004011,56.151467,0.062453,8.545911,56.798096,0.012425,0.035202,0.000108,0.019040,0.007929,0.000327,0.400000,0.150000,0.008560,0.900000,-0.151035,0.001112,1.494463,0.006201,0.711928,2.016912,-8.653662,0.063726
0.700000,140,998.762599,39.019084,-0.006254,56.195548,0.073357,9.981228,57.075125,0.013374,0.035596,0.000131,0.018865,0.007856,0.000375,0.400000,0.150000,0.009828,0.900000,-0.175783,0.001305,1.829202,0.007500,0.766275,2.039510,-10.071612,0.074794
0.750000,150,998.324407,41.847005,-0.009355,56.217019,0.085361,11.620139,57.405472,0.014313,0.035987,0.000156,0.018661,0.007770,0.000426,0.400000,0.150000,0.011204,0.900000,-0.203831,0.001518,2.217887,0.008958,0.820087,2.061878,-11.678649,0.086998
0.800000,160,997.799674,44.678607,-0.013552,56.207422,0.098527,13.495897,57.805045,0.015241,0.036372,0.000185,0.018419,0.007668,0.000479,0.400000,0.150000,0.012696,0.900000,-0.235648,0.001753,2.671144,0.010582,0.873270,2.083975,-13.501628,0.100435
0.850000,170,997.175511,47.512598,-0.019132,56.155206,0.112919,15.649129,58.295070,0.016157,0.036752,0.000216,0.018130,0.007547,0.000535,0.400000,0.150000,0.014310,0.900000,-0.271781,0.002011,3.203091,0.012377,0.925702,2.105749,-15.571898,0.115212
0.900000,180,996.436734,50.347103,-0.026448,56.044457,0.128587,18.130383,58.904232,0.017056,0.037126,0.000250,0.017781,0.007400,0.000591,0.400000,0.150000,0.016051,0.900000,-0.312875,0.002294,3.832859,0.014347,0.977231,2.127136,-17.926395,0.131458
0.950000,190,995.565272,53.179423,-0.035936,55.852955,0.145561,21.003931,59.671928,0.017936,0.037491,0.000288,0.017356,0.007221,0.000649,0.400000,0.150000,0.017923,0.900000,-0.359698,0.002606,4.587059,0.016492,1.027661,2.148053,-20.609154,0.149320
1.000000,200,994.539326,56.005687,-0.048135,55.549132,0.163827,24.353692,60.653402,0.018793,0.037846,0.000328,0.016834,0.007002,0.000704,0.400000,0.150000,0.019924,0.900000,-0.413180,0.002949,5.503893,0.018807,1.076748,2.168397,-23.673469,0.168978
1.050000,210,993.332145,58.820318,-0.063720,55.087073,0.183301,28.292765,61.928183,0.019621,0.038188,0.000371,0.016192,0.006732,0.000755,0.400000,0.150000,0.022047,0.900000,-0.474469,0.003327,6.640235,0.021278,1.124182,2.188039,-27.185069,0.190649
1.100000,220,991.910169,61.615191,-0.083556,54.397916,0.203768,32.979532,63.614655,0.020413,0.038516,0.000417,0.015396,0.006397,0.000797,0.400000,0.150000,0.024273,0.900000,-0.545013,0.003746,8.084478,0.023883,1.169570,2.206813,-31.226951,0.214622
1.150000,230,990.230055,64.378260,-0.108773,53.374096,0.224794,38.646386,65.896797,0.021161,0.038825,0.000464,0.014409,0.005983,0.000825,0.400000,0.150000,0.026560,0.900000,-0.626696,0.004212,9.981233,0.026583,1.212420,2.224517,-35.907032,0.241309
1.200000,240,988.233665,67.091130,-0.140900,51.838321,0.245552,45.654723,69.076953,0.021853,0.039111,0.000512,0.013181,0.005469,0.000830,0.400000,0.150000,0.028831,0.900000,-0.722057,0.004737,12.582630,0.029315,1.252111,2.240892,-41.370817,0.271401
1.250000,250,985.838923,69.724486,-0.182103,49.476396,0.264472,54.610062,73.690180,0.022478,0.039368,0.000558,0.011657,0.004831,0.000800,0.400000,0.150000,0.030939,0.900000,-0.834679,0.005345,16.365794,0.031990,1.287874,2.255622,-47.823607,0.306267
1.300000,260,982.921473,72.228514,-0.235666,45.672435,0.278435,66.634079,80.784586,0.023017,0.039590,0.000602,0.009773,0.004045,0.000721,0.400000,0.150000,0.032594,0.900000,-0.969922,0.006096,22.339468,0.034476,1.318763,2.268321,-55.572420,0.349290
1.350000,270,979.272420,74.509766,-0.307100,39.026566,0.280417,84.127692,92.739528,0.023451,0.039768,0.000639,0.007477,0.003090,0.000576,0.400000,0.150000,0.033154,0.900000,-1.136446,0.007185,33.006403,0.036593,1.343658,2.278537,-65.113566,0.411680
1.400000,280,974.478320,76.361734,-0.407349,25.498707,0.248672,113.567195,116.394818,0.023760,0.039895,0.000665,0.004781,0.001974,0.000354,0.400000,0.150000,0.030729,0.900000,-1.349934,0.009752,56.383639,0.038115,1.361359,2.285789,-77.345508,0.558750
1.450000,290,967.424356,77.157024,-0.572276,-13.519362,-1.968405,182.398271,182.909204,0.023928,0.039963,0.000685,0.002000,0.000903,0.001138,0.400000,0.150000,0.546724,0.900000,-1.644781,-2.997010,140.866014,0.039225,1.370973,2.289706,-94.239012,-171.716004
1.500000,300,1000.040691,76.224575,-0.744237,55.025520,-0.000026,0.076615,55.025573,0.000091,0.050044,-0.000364,0.010504,0.004910,0.000078,0.400000,0.150000,0.005600,0.900000,-0.001392,-0.000000,446.526429,-0.020873,0.005213,2.867291,-0.079776,-0.000027
1.550000,310,1000.168027,78.975059,-0.745239,55.110908,-0.000022,0.365848,55.112122,0.000922,0.050409,-0.000356,0.019339,0.008217,0.000204,0.400000,0.150000,0.005784,0.900000,-0.006638,-0.000000,155.969846,-0.020424,0.052847,2.888199,-0.380346,-0.000023
1.600000,320,1000.281222,81.730551,-0.746233,55.196707,0.000555,0.695573,55.201089,0.001915,0.050825,-0.000344,0.020046,0.008371,0.000247,0.400000,0.150000,0.006022,0.900000,-0.012601,0.000010,54.613750,-0.019734,0.109719,2.912073,-0.721986,0.000577
1.650000,330,1000.378274,84.491181,-0.747216,55.282813,0.001856,1.068221,55.293133,0.002919,0.051243,-0.000331,0.020046,0.008353,0.000267,0.400000,0.150000,0.006331,0.900000,-0.019320,0.000034,19.232810,-0.018937,0.167225,2.936032,-1.106979,0.001924
1.700000,340,1000.456905,87.257095,-0.748188,55.369056,0.003916,1.489438,55.389085,0.003920,0.051660,-0.000315,0.019983,0.008325,0.000284,0.400000,0.150000,0.006716,0.900000,-0.026894,0.000071,6.864217,-0.018063,0.224612,2.959919,-1.540896,0.004052
1.750000,350,1000.514531,90.028442,-0.749158,55.455170,0.006749,1.965815,55.490002,0.004918,0.052076,-0.000299,0.019913,0.008295,0.000302,0.400000,0.150000,0.007178,0.900000,-0.035434,0.000122,2.543402,-0.017118,0.281809,2.983721,-2.030212,0.006972
1.800000,360,1000.548213,92.805379,-0.750145,55.540763,0.010366,2.504876,55.597220,0.005913,0.052490,-0.000281,0.019838,0.008264,0.000322,0.400000,0.150000,0.007719,0.900000,-0.045069,0.000187,1.067310,-0.016094,0.338801,3.007435,-2.582277,0.010693
1.850000,370,1000.554609,95.588062,-0.751176,55.625276,0.014782,3.115224,55.712441,0.006904,0.052902,-0.000262,0.019758,0.008230,0.000346,0.400000,0.150000,0.008339,0.900000,-0.055945,0.000266,0.619001,-0.014984,0.395577,3.031054,-3.205430,0.015226
1.900000,380,1000.529916,98.376645,-0.752290,55.707918,0.020019,3.806708,55.837833,0.007891,0.053312,-0.000240,0.019672,0.008194,0.000373,0.400000,0.150000,0.009041,0.900000,-0.068227,0.000359,0.555376,-0.013779,0.452121,3.054573,-3.909135,0.020590
1.950000,390,1000.469802,101.171266,-0.753540,55.787599,0.026104,4.590638,55.976163,0.008874,0.053721,-0.000218,0.019578,0.008155,0.000403,0.400000,0.150000,0.009828,0.900000,-0.082103,0.000468,0.647373,-0.012471,0.508415,3.077983,-4.704144,0.026810
2.000000,400,1000.369321,103.972038,-0.754997,55.862823,0.033070,5.480040,56.130980,0.009851,0.054127,-0.000193,0.019475,0.008112,0.000436,0.400000,0.150000,0.010702,0.900000,-0.097785,0.000592,0.814358,-0.011050,0.564433,3.101272,-5.602684,0.033918
2.050000,410,1000.222826,106.779028,-0.756746,55.931555,0.040958,6.489982,56.306841,0.010824,0.054532,-0.000166,0.019359,0.008063,0.000472,0.400000,0.150000,0.011668,0.900000,-0.115518,0.000732,1.029561,-0.009507,0.620145,3.124427,-6.618680,0.041957
2.100000,420,1000.023851,109.592239,-0.758898,55.991041,0.049817,7.637988,56.509628,0.011790,0.054933,-0.000137,0.019227,0.008008,0.000512,0.400000,0.150000,0.012731,0.900000,-0.135578,0.000890,1.286278,-0.007835,0.675510,3.147430,-7.768026,0.050978
2.150000,430,999.764972,112.411569,-0.761590,56.037562,0.059702,8.944573,56.746958,0.012749,0.055331,-0.000105,0.019075,0.007944,0.000555,0.400000,0.150000,0.013895,0.900000,-0.158282,0.001065,1.585887,-0.006024,0.730477,3.170261,-9.068904,0.061043
2.200000,440,999.437638,115.236774,-0.764987,56.066096,0.070674,10.433952,57.028760,0.013701,0.055726,-0.000071,0.018897,0.007869,0.000601,0.400000,0.150000,0.015167,0.900000,-0.183996,0.001261,1.933766,-0.004067,0.784984,3.192890,-10.542197,0.072224
2.250000,450,999.031963,118.067397,-0.769294,56.069853,0.082796,12.135012,57.368056,0.014642,0.056117,-0.000034,0.018688,0.007781,0.000649,0.400000,0.150000,0.016554,0.900000,-0.213139,0.001477,2.338170,-0.001956,0.838948,3.215284,-12.211989,0.084606
2.300000,460,998.536448,120.902687,-0.774760,56.039612,0.096135,14.082655,57.782078,0.015573,0.056503,0.000005,0.018438,0.007676,0.000700,0.400000,0.150000,0.018062,0.900000,-0.246200,0.001715,2.810370,0.000315,0.892265,3.237397,-14.106230,0.098290
2.350000,470,997.937630,123.741473,-0.781692,55.962763,0.110753,16.319718,58.293879,0.016490,0.056883,0.000048,0.018136,0.007549,0.000753,0.400000,0.150000,0.019697,0.900000,-0.283749,0.001979,3.365555,0.002749,0.944806,3.259175,-16.257605,0.113390
2.400000,480,997.219610,126.581991,-0.790461,55.821884,0.126698,18.899792,58.934717,0.017391,0.057256,0.000093,0.017770,0.007395,0.000806,0.400000,0.150000,0.021464,0.900000,-0.326459,0.002270,4.024496,0.005349,0.996403,3.280547,-18.704721,0.130043
2.450000,490,996.363395,129.421634,-0.801529,55.592561,0.143993,21.891498,59.747730,0.018271,0.057621,0.000142,0.017321,0.007206,0.000858,0.400000,0.150000,0.023366,0.900000,-0.375137,0.002590,4.816354,0.008111,1.046848,3.301424,-21.493759,0.148404
2.500000,500,995.345970,132.256578,-0.815467,55.239929,0.162614,25.385171,60.793775,0.019127,0.057975,0.000192,0.016768,0.006974,0.000907,0.400000,0.150000,0.025401,0.900000,-0.430762,0.002944,5.783406,0.011027,1.095874,3.321696,-24.680856,0.168665
2.550000,510,994.138923,135.081207,-0.832999,54.712911,0.182451,29.503783,62.161154,0.019952,0.058315,0.000246,0.016085,0.006686,0.000950,0.400000,0.150000,0.027560,0.900000,-0.494550,0.003335,6.989313,0.014077,1.143147,3.341221,-28.335640,0.191063
2.600000,520,992.706333,137.887206,-0.855051,53.934159,0.203248,34.421631,63.982682,0.020739,0.058640,0.000301,0.015237,0.006330,0.000980,0.400000,0.150000,0.029818,0.900000,-0.568046,0.003768,8.534334,0.017230,1.188242,3.359824,-32.546661,0.215915
2.650000,530,991.001343,140.662029,-0.882846,52.781292,0.224493,40.398281,66.467558,0.021479,0.058945,0.000357,0.014183,0.005888,0.000992,0.400000,0.150000,0.032127,0.900000,-0.653278,0.004253,10.585149,0.020437,1.230629,3.377285,-37.430087,0.243693
2.700000,540,988.960263,143.386166,-0.918055,51.049052,0.245215,47.844965,69.965752,0.022159,0.059225,0.000412,0.012872,0.005339,0.000976,0.400000,0.150000,0.034397,0.900000,-0.753010,0.004803,13.438303,0.023622,1.269640,3.393329,-43.144312,0.275219
2.750000,550,986.491558,146.027844,-0.963086,48.364886,0.263551,57.467739,75.111735,0.022767,0.059474,0.000466,0.011244,0.004658,0.000918,0.400000,0.150000,0.036452,0.900000,-0.871199,0.005449,17.670169,0.026674,1.304450,3.407619,-49.916013,0.312214
2.800000,560,983.453014,148.531518,-1.021675,43.973038,0.275702,70.619652,83.191582,0.023284,0.059686,0.000514,0.009238,0.003822,0.000801,0.400000,0.150000,0.037942,0.900000,-1.013871,0.006270,24.545716,0.029437,1.334053,3.419746,-58.090542,0.359228
2.850000,570,979.596539,150.788626,-1.100330,36.062600,0.272598,90.349764,97.281371,0.023689,0.059852,0.000553,0.006812,0.002814,0.000607,0.400000,0.150000,0.038045,0.900000,-1.191028,0.007559,37.386724,0.031702,1.357281,3.429243,-68.240865,0.433091
2.900000,580,974.398493,152.542202,-1.212866,18.897916,0.220606,125.658095,127.071384,0.023962,0.059963,0.000580,0.004018,0.001659,0.000331,0.400000,0.150000,0.033932,0.900000,-1.421523,0.011673,67.942340,0.033218,1.372946,3.435638,-81.447295,0.668814
2.950000,590,966.226768,152.882502,-1.361551,-40.618096,-12.880416,223.978937,227.996270,0.024092,0.060009,0.000613,0.002759,0.006948,0.001061,0.400000,0.150000,-0.116700,0.900000,-1.750194,-2.834513,213.673117,0.035105,1.380357,3.438241,-100.278758,-162.405642
3.000000,600,1000.067202,160.979770,-2.447323,55.042561,-0.000138,0.130877,55.042716,0.000217,0.050102,-0.016265,0.014257,0.006461,0.000230,0.400000,0.150000,0.011180,0.900000,-0.002378,-0.000003,4143.089988,-0.931913,0.012455,2.870619,-0.136235,-0.000144
3.050000,610,1000.191858,163.730882,-2.492079,55.128038,-0.000507,0.428582,55.129704,0.001118,0.050491,-0.016247,0.019653,0.008296,0.000425,0.400000,0.150000,0.011326,0.900000,-0.007774,-0.000009,1444.871625,-0.930902,0.064065,2.892933,-0.445425,-0.000527
3.100000,620,1000.301993,166.487026,-2.536905,55.213908,-0.000371,0.766505,55.219228,0.002117,0.050909,-0.016224,0.020061,0.008370,0.000485,0.400000,0.150000,0.011518,0.900000,-0.013882,-0.000007,504.017719,-0.929542,0.121280,2.916867,-0.795355,-0.000385
3.150000,630,1000.395551,169.248337,-2.581799,55.300058,0.000490,1.148384,55.311980,0.003121,0.051327,-0.016197,0.020035,0.008347,0.000509,0.400000,0.150000,0.011782,0.900000,-0.020763,0.000009,175.922857,-0.928048,0.178813,2.940813,-1.189657,0.000507
3.200000,640,1000.470199,172.014959,-2.626763,55.386299,0.002135,1.580080,55.408833,0.004122,0.051743,-0.016170,0.019970,0.008319,0.000525,0.400000,0.150000,0.012124,0.900000,-0.028521,0.000039,61.494479,-0.926477,0.236199,2.964681,-1.634111,0.002209
3.250000,650,1000.523283,174.787046,-2.671810,55.472345,0.004586,2.068363,55.510893,0.005121,0.052159,-0.016141,0.019898,0.008289,0.000541,0.400000,0.150000,0.012546,0.900000,-0.037269,0.000083,21.594605,-0.924839,0.293391,2.988463,-2.135363,0.004737
3.300000,660,1000.551789,177.564752,-2.716961,55.557774,0.007856,2.620960,55.619563,0.006115,0.052572,-0.016112,0.019822,0.008257,0.000559,0.400000,0.150000,0.013050,0.900000,-0.047140,0.000141,7.720781,-0.923129,0.350376,3.012154,-2.700949,0.008102
3.350000,670,1000.552288,180.348236,-2.762247,55.641984,0.011960,3.246710,55.736628,0.007106,0.052984,-0.016080,0.019741,0.008223,0.000580,0.400000,0.150000,0.013637,0.900000,-0.058284,0.000215,2.955579,-0.921341,0.407142,3.035750,-3.339422,0.012315
3.400000,680,1000.520875,183.137646,-2.807711,55.724133,0.016918,3.955735,55.864364,0.008093,0.053394,-0.016048,0.019654,0.008187,0.000604,0.400000,0.150000,0.014309,0.900000,-0.070869,0.000304,1.391268,-0.919465,0.463672,3.059243,-4.060491,0.017396
3.450000,690,1000.453103,185.933116,-2.853409,55.803057,0.022759,4.759665,56.005679,0.009075,0.053802,-0.016013,0.019558,0.008147,0.000631,0.400000,0.150000,0.015068,0.900000,-0.085088,0.000408,0.964131,-0.917493,0.519947,3.082624,-4.875186,0.023368
3.500000,700,1000.343894,188.734750,-2.899417,55.877166,0.029516,5.671907,56.164304,0.010052,0.054208,-0.015977,0.019452,0.008102,0.000662,0.400000,0.150000,0.015919,0.900000,-0.101160,0.000528,0.954369,-0.915414,0.575941,3.105881,-5.796054,0.030265
3.550000,710,1000.187448,191.542604,-2.945824,55.944296,0.037231,6.707985,56.345033,0.011024,0.054611,-0.015939,0.019334,0.008052,0.000696,0.400000,0.150000,0.016866,0.900000,-0.119335,0.000665,1.112643,-0.913222,0.631621,3.129001,-6.837391,0.038130
3.600000,720,999.977117,194.356661,-2.992745,56.001523,0.045953,7.885972,56.554056,0.011989,0.055012,-0.015898,0.019198,0.007996,0.000733,0.400000,0.150000,0.017912,0.900000,-0.139897,0.000821,1.354865,-0.910906,0.686944,3.151965,-8.015522,0.047015
3.650000,730,999.705268,197.176792,-3.040317,56.044897,0.055738,9.227060,56.799403,0.012948,0.055410,-0.015856,0.019041,0.007930,0.000774,0.400000,0.150000,0.019064,0.900000,-0.163173,0.000995,1.655654,-0.908460,0.741859,3.174750,-9.349133,0.056982
3.700000,740,999.363101,200.002713,-3.088711,56.069085,0.066648,10.756313,57.091549,0.013898,0.055804,-0.015810,0.018858,0.007853,0.000817,0.400000,0.150000,0.020328,0.900000,-0.189538,0.001189,2.011321,-0.905874,0.796297,3.197327,-10.859703,0.068106
3.750000,750,998.940431,202.833913,-3.138130,56.066872,0.078748,12.503697,57.444258,0.014838,0.056194,-0.015763,0.018641,0.007762,0.000862,0.400000,0.150000,0.021710,0.900000,-0.219423,0.001405,2.427315,-0.903143,0.850174,3.219660,-12.572031,0.080474
3.800000,760,998.425397,205.669565,-3.188819,56.028447,0.092104,14.505525,57.875777,0.015767,0.056578,-0.015713,0.018382,0.007652,0.000910,0.400000,0.150000,0.023217,0.900000,-0.253333,0.001644,2.914420,-0.900262,0.903380,3.241703,-14.514936,0.094188
3.850000,770,997.804092,208.508389,-3.241076,55.940369,0.106779,16.806523,58.410577,0.016681,0.056957,-0.015660,0.018069,0.007521,0.000958,0.400000,0.150000,0.024855,0.900000,-0.291857,0.001909,3.488367,-0.897228,0.955779,3.263396,-16.722181,0.109366
3.900000,780,997.060058,211.348472,-3.295258,55.784024,0.122820,19.462889,59.081947,0.017579,0.057328,-0.015604,0.017687,0.007360,0.001007,0.400000,0.150000,0.026629,0.900000,-0.335692,0.002202,4.171194,-0.894042,1.007195,3.284668,-19.233736,0.126149
3.950000,790,996.173581,214.186989,-3.351802,55.533239,0.140247,22.546950,59.936009,0.018455,0.057691,-0.015546,0.017219,0.007163,0.001053,0.400000,0.150000,0.028542,0.900000,-0.385675,0.002525,4.994174,-0.890709,1.057410,3.305424,-22.097556,0.144698
4.000000,800,995.120696,217.019803,-3.411241,55.150464,0.159026,26.154516,61.038165,0.019306,0.058042,-0.015485,0.016643,0.006921,0.001095,0.400000,0.150000,0.030591,0.900000,-0.442827,0.002883,6.003027,-0.887243,1.106145,3.325548,-25.372145,0.165211
4.050000,810,993.871689,219.840835,-3.474237,54.580365,0.179032,30.416988,62.483930,0.020124,0.058379,-0.015423,0.015930,0.006621,0.001128,0.400000,0.150000,0.032764,0.900000,-0.508421,0.003280,7.267197,-0.883667,1.153048,3.344895,-29.130403,0.187938
4.100000,820,992.388781,222.641058,-3.541625,53.738489,0.199980,35.522311,64.418163,0.020903,0.058700,-0.015359,0.015045,0.006249,0.001146,0.400000,0.150000,0.035035,0.900000,-0.584084,0.003721,8.897153,-0.880020,1.197677,3.363279,-33.465571,0.213217
4.150000,830,990.622331,225.406787,-3.614488,52.489817,0.221304,41.753537,67.071512,0.021633,0.059000,-0.015295,0.013943,0.005787,0.001142,0.400000,0.150000,0.037351,0.900000,-0.671966,0.004216,11.078827,-0.876361,1.239473,3.380471,-38.500837,0.241566
4.200000,840,988.504199,228.116582,-3.694277,50.604739,0.241923,49.565595,70.835347,0.022301,0.059275,-0.015233,0.012574,0.005214,0.001105,0.400000,0.150000,0.039610,0.900000,-0.775025,0.004781,14.148268,-0.872779,1.277739,3.396184,-44.405648,0.273909
4.250000,850,985.935127,230.735110,-3.783051,47.658429,0.259743,59.754646,76.433050,0.022892,0.059517,-0.015174,0.010875,0.004504,0.001019,0.400000,0.150000,0.041618,0.900000,-0.897540,0.005450,18.772565,-0.869400,1.311615,3.410067,-51.425237,0.312264
4.300000,860,982.757876,233.199474,-3.883951,42.764802,0.270394,73.888447,85.372150,0.023388,0.059720,-0.015122,0.008787,0.003634,0.000867,0.400000,0.150000,0.042970,0.900000,-1.046130,0.006323,26.460516,-0.866404,1.340059,3.421700,-59.938806,0.362266
4.350000,870,978.689723,235.383028,-4.002406,33.705534,0.262858,95.653143,101.418223,0.023769,0.059875,-0.015080,0.006277,0.002593,0.000631,0.400000,0.150000,0.042676,0.900000,-1.232010,0.007799,41.364651,-0.864022,1.361879,3.430606,-70.588946,0.446822
4.400000,880,973.100582,236.968877,-4.150159,12.861300,0.187358,136.815987,137.419294,0.024014,0.059975,-0.015054,0.003439,0.001421,0.000309,0.400000,0.150000,0.036727,0.900000,-1.477067,0.014567,79.494400,-0.862521,1.375925,3.436332,-84.629728,0.834600
4.450000,890,963.735028,236.658623,-4.394190,-74.833948,18.681020,274.745362,285.366632,0.024029,0.059300,-0.015056,0.099303,0.983854,0.003709,0.400000,0.150000,0.124456,0.900000,-1.836721,2.896959,308.232560,-0.862641,1.376782,3.397620,-105.236365,165.983551
4.500000,900,1000.093205,245.684471,-5.510382,55.059621,-0.000384,0.187112,55.059939,0.000373,0.050171,-0.031962,0.016556,0.007325,0.000432,0.400000,0.150000,0.016685,0.900000,-0.003398,-0.000007,3370.062006,-1.831307,0.021385,2.874608,-0.194711,-0.000399
4.550000,910,1000.215108,248.435537,-5.598361,55.145183,-0.001183,0.492893,55.147386,0.001317,0.050574,-0.031934,0.019841,0.008338,0.000657,0.400000,0.150000,0.016786,0.900000,-0.008938,-0.000021,1175.324148,-1.829660,0.075435,2.897700,-0.512102,-0.001229
4.600000,920,1000.322101,251.191659,-5.686487,55.231120,-0.001492,0.839192,55.237495,0.002319,0.050993,-0.031898,0.020065,0.008367,0.000725,0.400000,0.150000,0.016931,0.900000,-0.015193,-0.000027,410.024135,-1.827615,0.132859,2.921660,-0.870496,-0.001547
4.650000,930,1000.412074,253.952975,-5.774758,55.317306,-0.001057,1.230537,55.330991,0.003323,0.051410,-0.031860,0.020023,0.008342,0.000749,0.400000,0.150000,0.017149,0.900000,-0.022241,-0.000019,143.142293,-1.825429,0.190407,2.945590,-1.274338,-0.001095
4.700000,940,1000.482632,256.719631,-5.863183,55.403535,0.000193,1.672983,55.428788,0.004325,0.051826,-0.031820,0.019956,0.008313,0.000762,0.400000,0.150000,0.017448,0.900000,-0.030187,0.000003,50.061554,-1.823170,0.247790,2.969438,-1.729597,0.000200
4.750000,950,1000.531054,259.491780,-5.951774,55.489497,0.002282,2.173481,55.532047,0.005323,0.052241,-0.031780,0.019883,0.008283,0.000775,0.400000,0.150000,0.017831,0.900000,-0.039149,0.000041,17.612674,-1.820850,0.304977,2.993199,-2.243085,0.002357
4.800000,960,1000.554247,262.269578,-6.040556,55.574736,0.005224,2.739969,55.642239,0.006317,0.052654,-0.031738,0.019806,0.008251,0.000791,0.400000,0.150000,0.018299,0.900000,-0.049263,0.000094,6.344463,-1.818466,0.361954,3.016869,-2.822535,0.005386
4.850000,970,1000.548691,265.053182,-6.129563,55.658611,0.009034,3.381525,55.761239,0.007308,0.053066,-0.031695,0.019724,0.008216,0.000809,0.400000,0.150000,0.018853,0.900000,-0.060680,0.000162,2.493329,-1.816011,0.418708,3.040440,-3.476717,0.009299
4.900000,980,1000.510381,267.842736,-6.218843,55.740220,0.013732,4.108555,55.891435,0.008294,0.053475,-0.031651,0.019635,0.008179,0.000831,0.400000,0.150000,0.019496,0.900000,-0.073576,0.000246,1.252109,-1.813475,0.475223,3.063906,-4.215590,0.014115
4.950000,990,1000.434748,270.638370,-6.308457,55.818324,0.019346,4.933021,56.035885,0.009276,0.053883,-0.031605,0.019538,0.008138,0.000856,0.400000,0.150000,0.020230,0.900000,-0.088147,0.000347,0.941745,-1.810850,0.531478,3.087258,-5.050472,0.019858
5.000000,1000,1000.316581,273.440179,-6.398481,55.891232,0.025912,5.868724,56.198509,0.010253,0.054288,-0.031558,0.019430,0.008093,0.000885,0.400000,0.150000,0.021058,0.900000,-0.104619,0.000464,0.977029,-1.808126,0.587446,3.110483,-5.994239,0.026563
5.050000,1010,1000.149917,276.248204,-6.489012,55.956644,0.033471,6.931658,56.384351,0.011224,0.054691,-0.031508,0.019308,0.008042,0.000916,0.400000,0.150000,0.021986,0.900000,-0.123248,0.000598,1.155821,-1.805294,0.643091,3.133567,-7.061571,0.034272
5.100000,1020,999.927925,279.062407,-6.580166,56.011454,0.042073,8.140472,56.599930,0.012189,0.055091,-0.031457,0.019169,0.007983,0.000951,0.400000,0.150000,0.023017,0.900000,-0.144325,0.000751,1.410709,-1.802347,0.698371,3.156490,-8.269233,0.043038
5.150000,1030,999.642755,281.882631,-6.672084,56.051469,0.051775,9.517064,56.853710,0.013146,0.055488,-0.031403,0.019007,0.007915,0.000989,0.400000,0.150000,0.024157,0.900000,-0.168188,0.000924,1.722353,-1.799276,0.753229,3.179229,-9.636435,0.052925
5.200000,1040,999.285347,284.708550,-6.764935,56.071025,0.062641,11.087385,57.156748,0.014095,0.055881,-0.031347,0.018818,0.007836,0.001029,0.400000,0.150000,0.025413,0.900000,-0.195220,0.001117,2.089451,-1.796074,0.807596,3.201752,-11.185273,0.064009
5.250000,1050,998.845208,287.539594,-6.858922,56.062452,0.074736,12.882540,57.523595,0.015034,0.056270,-0.031289,0.018593,0.007741,0.001071,0.400000,0.150000,0.026791,0.900000,-0.225868,0.001333,2.518657,-1.792735,0.861380,3.224023,-12.941287,0.076380
5.300000,1060,998.310101,290.374855,-6.954285,56.015309,0.088127,14.940334,57.973581,0.015960,0.056653,-0.031228,0.018324,0.007628,0.001115,0.400000,0.150000,0.028298,0.900000,-0.260651,0.001573,3.021706,-1.789256,0.914468,3.245992,-14.934204,0.090142
5.350000,1070,997.665653,293.212938,-7.051310,55.915264,0.102877,17.307503,58.532700,0.016872,0.057030,-0.031165,0.017998,0.007491,0.001160,0.400000,0.150000,0.029940,0.900000,-0.300178,0.001840,3.615433,-1.785636,0.966717,3.267598,-17.198913,0.105417
5.400000,1080,996.894818,296.051767,-7.150336,55.742417,0.119031,20.043033,59.236428,0.017766,0.057400,-0.031100,0.017601,0.007324,0.001203,0.400000,0.150000,0.031722,0.900000,-0.345171,0.002135,4.323432,-1.781877,1.017944,3.288765,-19.776819,0.122348
5.450000,1090,995.977125,298.888286,-7.251770,55.468686,0.136605,23.223247,60.134125,0.018639,0.057760,-0.031032,0.017114,0.007119,0.001243,0.400000,0.150000,0.033646,0.900000,-0.396500,0.002463,5.179353,-1.777988,1.067918,3.309396,-22.717750,0.141104
5.500000,1100,994.887598,301.718021,-7.356097,55.053589,0.155557,26.949901,61.296158,0.019484,0.058108,-0.030962,0.016513,0.006866,0.001277,0.400000,0.150000,0.035708,0.900000,-0.455230,0.002826,6.232740,-1.773987,1.116347,3.329368,-26.082730,0.161892
5.550000,1110,993.595130,304.534390,-7.463906,54.437093,0.175744,31.363640,62.825997,0.020296,0.058443,-0.030891,0.015768,0.006553,0.001300,0.400000,0.150000,0.037896,0.900000,-0.522694,0.003228,7.559494,-1.769903,1.162862,3.348528,-29.948165,0.184972
5.600000,1120,992.059937,307.327589,-7.575925,53.526816,0.196849,36.667540,64.881949,0.021066,0.058760,-0.030819,0.014843,0.006165,0.001305,0.400000,0.150000,0.040180,0.900000,-0.600609,0.003678,9.281612,-1.765783,1.206999,3.366684,-34.412361,0.210709
5.650000,1130,990.229337,310.082679,-7.693064,52.173435,0.218243,43.171067,67.718949,0.021785,0.059055,-0.030747,0.013693,0.005682,0.001284,0.400000,0.150000,0.042501,0.900000,-0.691258,0.004183,11.607089,-1.761695,1.248175,3.383595,-39.606159,0.239669
5.700000,1140,988.030257,312.776054,-7.816507,50.119238,0.238723,51.379184,71.776149,0.022439,0.059323,-0.030678,0.012262,0.005083,0.001224,0.400000,0.150000,0.044746,0.900000,-0.797811,0.004763,14.918156,-1.757742,1.285662,3.398964,-45.711202,0.272903
5.750000,1150,985.354709,315.368320,-7.947867,46.877501,0.255925,62.193836,77.882211,0.023013,0.059558,-0.030614,0.010490,0.004344,0.001109,0.400000,0.150000,0.046695,0.900000,-0.924911,0.005459,19.990875,-1.754071,1.318561,3.412425,-52.993488,0.312800
5.800000,1160,982.027979,317.787933,-8.089501,41.401910,0.264784,77.444165,87.816781,0.023489,0.059752,-0.030559,0.008319,0.003440,0.000919,0.400000,0.150000,0.047882,0.900000,-1.079851,0.006395,28.638704,-1.750879,1.345796,3.423544,-61.870891,0.366427
5.850000,1170,977.725219,319.885959,-8.245291,30.942149,0.251660,101.638704,106.244557,0.023844,0.059897,-0.030516,0.005728,0.002365,0.000638,0.400000,0.150000,0.047094,0.900000,-1.275278,0.008133,46.119780,-1.748425,1.366158,3.431841,-73.068034,0.465990
5.900000,1180,971.675412,321.264841,-8.423501,5.112005,0.129679,150.551242,150.638062,0.024060,0.059985,-0.030491,0.002867,0.001188,0.000270,0.400000,0.150000,0.038018,0.900000,-1.536854,0.025362,94.853368,-1.746988,1.378560,3.436891,-88.055255,1.453143
5.950000,1190,960.539506,319.947810,-8.582631,57.910039,-46.618892,449.231602,455.341548,-0.010245,-0.549564,-0.047477,66.559974,1505.695671,-0.449461,0.400000,0.150000,-0.434227,0.900000,-1.442594,-0.677796,7074.731222,-2.720222,-0.586972,-31.487715,-82.654562,-38.834852
6.000000,1200,1000.118686,330.316561,-9.915029,55.076699,-0.000790,0.245085,55.077244,0.000547,0.050247,-0.047459,0.017961,0.007806,0.000664,0.400000,0.150000,0.022080,0.900000,-0.004450,-0.000014,2741.177181,-2.719202,0.031353,2.878965,-0.254958,-0.000822
6.050000,1210,1000.237764,333.066932,-10.045698,55.162343,-0.002048,0.558808,55.165174,0.001517,0.050658,-0.047418,0.019951,0.008359,0.000894,0.400000,0.150000,0.022131,0.900000,-0.010130,-0.000037,956.036790,-2.716875,0.086899,2.902483,-0.580400,-0.002128
6.100000,1220,1000.341529,335.822383,-10.176590,55.248343,-0.002794,0.913679,55.255897,0.002521,0.051076,-0.047371,0.020062,0.008363,0.000962,0.400000,0.150000,0.022229,0.900000,-0.016536,-0.000051,333.555295,-2.714145,0.144450,2.926450,-0.947452,-0.002897
6.150000,1230,1000.427821,338.583054,-10.307706,55.334556,-0.002765,1.314733,55.350173,0.003526,0.051494,-0.047321,0.020010,0.008336,0.000983,0.400000,0.150000,0.022402,0.900000,-0.023755,-0.000050,116.472745,-2.711278,0.202006,2.950362,-1.361075,-0.002863
6.200000,1240,1000.494180,341.349093,-10.439056,55.420761,-0.001889,1.768207,55.448961,0.004527,0.051909,-0.047270,0.019941,0.008307,0.000994,0.400000,0.150000,0.022660,0.900000,-0.031894,-0.000034,40.760702,-2.708345,0.259386,2.974191,-1.827410,-0.001952
6.250000,1250,1000.537817,344.120652,-10.570656,55.506620,-0.000139,2.281237,55.553477,0.005525,0.052324,-0.047217,0.019868,0.008276,0.001005,0.400000,0.150000,0.023005,0.900000,-0.041075,-0.000003,14.375819,-2.705358,0.316565,2.997931,-2.353445,-0.000144
6.300000,1260,1000.555556,346.897889,-10.702535,55.591645,0.002496,2.861978,55.665267,0.006519,0.052736,-0.047164,0.019790,0.008244,0.001018,0.400000,0.150000,0.023438,0.900000,-0.051437,0.000045,5.229211,-2.702315,0.373533,3.021578,-2.947108,0.002572
6.350000,1270,1000.543786,349.680957,-10.834729,55.675147,0.006032,3.519756,55.786295,0.007510,0.053147,-0.047110,0.019707,0.008209,0.001034,0.400000,0.150000,0.023960,0.900000,-0.063135,0.000108,2.123045,-2.699207,0.430274,3.045124,-3.617397,0.006208
6.400000,1280,1000.498395,352.469999,-10.967291,55.756168,0.010490,4.265269,55.919074,0.008496,0.053557,-0.047055,0.019617,0.008171,0.001053,0.400000,0.150000,0.024575,0.900000,-0.076350,0.000188,1.145845,-2.696027,0.486773,3.068564,-4.374527,0.010780
6.450000,1290,1000.414694,355.265138,-11.100284,55.833385,0.015899,5.110822,56.066814,0.009477,0.053964,-0.046998,0.019517,0.008130,0.001076,0.400000,0.150000,0.025284,0.900000,-0.091283,0.000285,0.931671,-2.692763,0.543006,3.091886,-5.230110,0.016315
6.500000,1300,1000.287329,358.066457,-11.233791,55.905000,0.022293,6.070624,56.233637,0.010454,0.054368,-0.046939,0.019407,0.008083,0.001102,0.400000,0.150000,0.026091,0.900000,-0.108164,0.000399,1.004901,-2.689408,0.598945,3.115078,-6.197364,0.022847
6.550000,1310,1000.110175,360.873984,-11.367909,55.968570,0.029715,7.161161,56.424852,0.011424,0.054771,-0.046879,0.019282,0.008031,0.001131,0.400000,0.150000,0.027000,0.900000,-0.127258,0.000531,1.201858,-2.685953,0.654554,3.138124,-7.291360,0.030419
6.600000,1320,999.876209,363.687659,-11.502759,56.020797,0.038216,8.401676,56.647324,0.012388,0.055170,-0.046817,0.019138,0.007970,0.001163,0.400000,0.150000,0.028017,0.900000,-0.148865,0.000682,1.468758,-2.682388,0.709787,3.161006,-8.529321,0.039086
6.650000,1330,999.577355,366.507292,-11.638483,56.057228,0.047855,9.814806,56.909978,0.013345,0.055566,-0.046752,0.018972,0.007901,0.001198,0.400000,0.150000,0.029147,0.900000,-0.173329,0.000854,1.791245,-2.678708,0.764585,3.183697,-9.930997,0.048912
6.700000,1340,999.204289,369.332514,-11.775251,56.071847,0.058694,11.427436,57.224486,0.014292,0.055958,-0.046686,0.018776,0.007818,0.001236,0.400000,0.150000,0.030395,0.900000,-0.201047,0.001047,2.170051,-2.674904,0.818875,3.206165,-11.519122,0.059975
6.750000,1350,998.746192,372.162693,-11.913260,56.056500,0.070803,13.271867,57.606238,0.015229,0.056346,-0.046617,0.018543,0.007720,0.001275,0.400000,0.150000,0.031770,0.900000,-0.232478,0.001263,2.612940,-2.670974,0.872562,3.228371,-13.320010,0.072368
6.800000,1360,998.190438,374.996831,-12.052745,56.000070,0.084247,15.387487,58.075724,0.016153,0.056728,-0.046546,0.018264,0.007603,0.001315,0.400000,0.150000,0.033278,0.900000,-0.268158,0.001504,3.132601,-2.666912,0.925526,3.250264,-15.364330,0.086197
6.850000,1370,997.522166,377.833412,-12.193977,55.887270,0.099090,17.823172,58.660568,0.017063,0.057103,-0.046473,0.017925,0.007460,0.001355,0.400000,0.150000,0.034925,0.900000,-0.308717,0.001773,3.747043,-2.662722,0.977617,3.271781,-17.688154,0.101587
6.900000,1380,996.723715,380.670187,-12.337273,55.696811,0.115375,20.640896,59.398608,0.017953,0.057471,-0.046398,0.017511,0.007286,0.001393,0.400000,0.150000,0.036715,0.900000,-0.354902,0.002071,4.481542,-2.658407,1.028644,3.292840,-20.334397,0.118688
6.950000,1390,995.773811,383.503850,-12.483002,55.398535,0.133114,23.921295,60.342719,0.018821,0.057829,-0.046321,0.017003,0.007072,0.001427,0.400000,0.150000,0.038651,0.900000,-0.407619,0.002403,5.372355,-2.653980,1.078364,3.313340,-23.354868,0.137672
7.000000,1400,994.646405,386.329565,-12.631595,54.948750,0.152253,27.772596,61.568705,0.019661,0.058174,-0.046242,0.016376,0.006809,0.001452,0.400000,0.150000,0.040728,0.900000,-0.467980,0.002771,6.473256,-2.649464,1.126471,3.333153,-26.813278,0.158756
7.050000,1410,993.308896,389.140203,-12.783555,54.282233,0.172632,32.345598,63.188831,0.020465,0.058506,-0.046162,0.015599,0.006482,0.001464,0.400000,0.150000,0.042930,0.900000,-0.537383,0.003180,7.867359,-2.644893,1.172578,3.352120,-30.789791,0.182216
7.100000,1420,991.719332,391.925112,-12.939476,53.297728,0.193897,37.860200,65.376450,0.021227,0.058818,-0.046082,0.014633,0.006076,0.001455,0.400000,0.150000,0.045226,0.900000,-0.617641,0.003638,9.689710,-2.640322,1.216201,3.370038,-35.388196,0.208441
7.150000,1430,989.821701,394.667963,-13.100068,51.829664,0.215350,44.655664,68.414098,0.021934,0.059108,-0.046004,0.013431,0.005573,0.001416,0.400000,0.150000,0.047550,0.900000,-0.711181,0.004155,12.173678,-2.635832,1.256727,3.386658,-40.747696,0.238060
7.200000,1440,987.537442,397.342722,-13.266184,49.587754,0.235645,53.294500,72.796322,0.022574,0.059370,-0.045929,0.011937,0.004948,0.001332,0.400000,0.150000,0.049776,0.900000,-0.821412,0.004752,15.755739,-2.631540,1.293396,3.401668,-47.063418,0.272272
7.250000,1450,984.748649,399.905328,-13.438879,46.011510,0.252105,64.803607,79.477230,0.023130,0.059598,-0.045860,0.010089,0.004176,0.001185,0.400000,0.150000,0.051654,0.900000,-0.953381,0.005479,21.343736,-2.627610,1.325273,3.414689,-54.624690,0.313931
7.300000,1460,981.260138,402.273997,-13.619476,39.855725,0.258803,81.333331,90.574039,0.023584,0.059782,-0.045802,0.007833,0.003238,0.000956,0.400000,0.150000,0.052642,0.900000,-1.115157,0.006493,31.135669,-2.624266,1.351248,3.425276,-63.893787,0.372045
7.350000,1470,976.695183,404.271975,-13.809657,27.663559,0.238439,108.471433,111.943652,0.023913,0.059916,-0.045759,0.005166,0.002133,0.000628,0.400000,0.150000,0.051222,0.900000,-1.321088,0.008619,51.887303,-2.621786,1.370104,3.432947,-75.692790,0.493835
7.400000,1480,970.090958,405.389925,-14.012981,-5.179825,6.779240,168.021443,168.237909,0.024100,0.059992,-0.045736,0.002319,0.000978,0.000206,0.400000,0.150000,0.033039,0.900000,-1.601615,2.223243,119.990211,-2.620466,1.380849,3.437317,-91.765776,127.382421
7.450000,1490,1000.013685,412.110773,-15.470262,55.008501,-0.000021,0.024774,55.008506,0.000013,0.050006,-0.062789,0.004382,0.002129,0.000142,0.400000,0.150000,0.027278,0.900000,-0.000450,-0.000000,6393.387633,-3.597564,0.000717,2.865147,-0.025805,-0.000022
7.500000,1500,1000.143631,414.854853,-15.642788,55.093795,-0.001375,0.304679,55.094638,0.000732,0.050327,-0.062759,0.018818,0.008071,0.000910,0.400000,0.150000,0.027333,0.900000,-0.005530,-0.000025,2229.524183,-3.595821,0.041959,2.883525,-0.316853,-0.001430
7.550000,1510,1000.259807,417.603905,-15.815615,55.179518,-0.003097,0.626357,55.183073,0.001718,0.050742,-0.062706,0.020013,0.008368,0.001131,0.400000,0.150000,0.027333,0.900000,-0.011351,-0.000056,777.625916,-3.592798,0.098424,2.907274,-0.650351,-0.003216
7.600000,1520,1000.360260,420.358061,-15.988741,55.265574,-0.004262,0.990010,55.274441,0.002724,0.051160,-0.062647,0.020056,0.008358,0.001194,0.400000,0.150000,0.027384,0.900000,-0.017912,-0.000077,271.339371,-3.589391,0.156051,2.931237,-1.026269,-0.004419
7.650000,1530,1000.442771,423.117462,-16.162170,55.351807,-0.004616,1.401024,55.369535,0.003728,0.051577,-0.062585,0.019997,0.008331,0.001212,0.400000,0.150000,0.027514,0.900000,-0.025306,-0.000083,94.773530,-3.585859,0.213609,2.955131,-1.449919,-0.004778
7.700000,1540,1000.504821,425.882256,-16.335913,55.437973,-0.004087,1.865810,55.469362,0.004730,0.051992,-0.062522,0.019927,0.008301,0.001220,0.400000,0.150000,0.027732,0.900000,-0.033643,-0.000074,33.194336,-3.582269,0.270983,2.978940,-1.927609,-0.004224
7.750000,1550,1000.543545,428.652599,-16.509991,55.523710,-0.002653,2.391699,55.575197,0.005727,0.052406,-0.062459,0.019853,0.008270,0.001228,0.400000,0.150000,0.028040,0.900000,-0.043049,-0.000048,11.745362,-3.578634,0.328154,3.002658,-2.466507,-0.002737
7.800000,1560,1000.555686,431.428646,-16.684433,55.608493,-0.000300,2.987065,55.688662,0.006721,0.052819,-0.062395,0.019774,0.008237,0.001238,0.400000,0.150000,0.028439,0.900000,-0.053664,-0.000005,4.326580,-3.574951,0.385111,3.026281,-3.074744,-0.000309
7.850000,1570,1000.537538,434.210548,-16.859282,55.691586,0.002986,3.661493,55.811820,0.007712,0.053229,-0.062329,0.019690,0.008202,0.001252,0.400000,0.150000,0.028932,0.900000,-0.065651,0.000054,1.827798,-3.571210,0.441838,3.049803,-3.761548,0.003072
7.900000,1580,1000.484880,436.998445,-17.034593,55.771964,0.007227,4.425981,55.947309,0.008697,0.053638,-0.062263,0.019598,0.008163,0.001269,0.400000,0.150000,0.029519,0.900000,-0.079193,0.000130,1.066570,-3.567402,0.498318,3.073215,-4.537399,0.007425
7.950000,1590,1000.392896,439.792452,-17.210434,55.848223,0.012451,5.293189,56.098503,0.009678,0.054044,-0.062195,0.019496,0.008121,0.001289,0.400000,0.150000,0.030205,0.900000,-0.094496,0.000223,0.931861,-3.563519,0.554527,3.096506,-5.414213,0.012774
8.000000,1600,1000.256089,442.592642,-17.386890,55.918448,0.018695,6.277749,56.269737,0.010654,0.054448,-0.062126,0.019383,0.008073,0.001313,0.400000,0.150000,0.030991,0.900000,-0.111798,0.000334,1.037291,-3.559551,0.610436,3.119665,-6.405555,0.019155
8.050000,1610,1000.068164,445.399027,-17.564062,55.980045,0.026001,7.396655,56.466598,0.011624,0.054850,-0.062055,0.019254,0.008019,0.001340,0.400000,0.150000,0.031884,0.900000,-0.131369,0.000464,1.250542,-3.555490,0.666005,3.142674,-7.526903,0.026612
8.100000,1620,999.821901,448.211521,-17.742074,56.029513,0.034421,8.669774,56.696318,0.012587,0.055249,-0.061982,0.019107,0.007957,0.001369,0.400000,0.150000,0.032887,0.900000,-0.153518,0.000614,1.528976,-3.551326,0.721188,3.165512,-8.795953,0.035199
8.150000,1630,999.508992,451.029904,-17.921067,56.062121,0.044016,10.120516,56.968308,0.013542,0.055644,-0.061908,0.018935,0.007885,0.001402,0.400000,0.150000,0.034007,0.900000,-0.178600,0.000785,1.862367,-3.547055,0.775923,3.188154,-10.233010,0.044985
8.200000,1640,999.119833,453.853756,-18.101211,56.071478,0.054850,11.776742,57.294898,0.014489,0.056035,-0.061831,0.018733,0.007800,0.001436,0.400000,0.150000,0.035249,0.900000,-0.207022,0.000978,2.253201,-3.542668,0.830131,3.210566,-11.861473,0.056047
8.250000,1650,998.643275,456.682379,-18.282700,56.048915,0.066991,13.672019,57.692369,0.015424,0.056421,-0.061753,0.018491,0.007699,0.001472,0.400000,0.150000,0.036622,0.900000,-0.239258,0.001195,2.710279,-3.538163,0.883715,3.232706,-13.708458,0.068482
8.300000,1660,998.066281,459.514683,-18.465755,55.982593,0.080509,15.847409,58.182451,0.016346,0.056802,-0.061672,0.018201,0.007576,0.001508,0.400000,0.150000,0.038131,0.900000,-0.275860,0.001438,3.247268,-3.533539,0.936548,3.254520,-15.805621,0.082398
8.350000,1670,997.373481,462.349021,-18.650633,55.856195,0.095464,18.354074,58.794520,0.017252,0.057176,-0.061589,0.017849,0.007428,0.001544,0.400000,0.150000,0.039784,0.900000,-0.317480,0.001709,3.883424,-3.528797,0.988473,3.275943,-18.190271,0.097925
8.400000,1680,996.546566,465.182956,-18.837623,55.646930,0.111899,21.257191,59.568964,0.018139,0.057542,-0.061504,0.017418,0.007247,0.001576,0.400000,0.150000,0.041584,0.900000,-0.364894,0.002011,4.645855,-3.523946,1.039289,3.296890,-20.906914,0.115215
8.450000,1690,995.563414,468.012918,-19.027050,55.322385,0.129819,24.642060,60.562482,0.019002,0.057897,-0.061418,0.016888,0.007024,0.001603,0.400000,0.150000,0.043532,0.900000,-0.419044,0.002347,5.573676,-3.519003,1.088741,3.317255,-24.009461,0.134449
8.500000,1700,994.396832,470.833675,-19.219278,54.835346,0.149161,28.623962,61.856839,0.019836,0.058240,-0.061331,0.016234,0.006749,0.001619,0.400000,0.150000,0.045624,0.900000,-0.481091,0.002720,6.725349,-3.513993,1.136510,3.336904,-27.564486,0.155853
8.550000,1710,993.012618,473.637510,-19.414712,54.114838,0.169742,33.364878,63.574048,0.020633,0.058567,-0.061243,0.015422,0.006408,0.001620,0.400000,0.150000,0.047841,0.900000,-0.552505,0.003137,8.192071,-3.508959,1.182190,3.355669,-31.656195,0.179719
8.600000,1720,991.366468,476.412837,-19.613791,53.049653,0.191168,39.103457,65.904344,0.021385,0.058876,-0.061156,0.014413,0.005984,0.001596,0.400000,0.150000,0.050149,0.900000,-0.635201,0.003604,10.123695,-3.503964,1.225271,3.373340,-36.394318,0.206468
8.650000,1730,989.398709,479.141788,-19.816978,51.455695,0.212661,46.212690,69.161741,0.022080,0.059161,-0.061071,0.013157,0.005458,0.001537,0.400000,0.150000,0.052473,0.900000,-0.731768,0.004133,12.782883,-3.499102,1.265115,3.389656,-41.927214,0.236796
